country,name,latitude,longitude
Title 2,Congress,42.546245,1.601554
Title 1,Judiciary,33.93911,67.709953
AI,Anguilla,18.220554,-63.068615
AL,Albania,41.153332,20.168331
Title 3,Media Lab Law,37.09024,-95.712891
